{
  "category":"surfing",
  "local":[
    {"index":"0", "province":"서울특별시", "district":"한강", "weatherURL":"https://www.windfinder.com/forecast/seoul_han_river", "matching":"100","location":"서울시", "shop":[{"name":"무라사키스포츠","phone":"02-518-1869","homepage":"http://www.murasakisports.co.kr/","address":"631-31 Sinsa-dong, Gangnam-gu, Seoul, South Korea"}]}

  ,{"index":"1", "province":"강원도", "district":"경포 해수욕장" , "direction" : "90 270",  "weatherURL":"https://www.windfinder.com/forecast/gangneung_virtual_buoy","matching":"80","location":"강릉시 안현동"}
  ,{"index":"2", "province":"강원도", "district":"교암 해수욕장" , "direction" : "90 270",  "weatherURL":"https://www.windfinder.com/forecast/sokcho","matching":"80","location":"고성군 토성면"}
  ,{"index":"3", "province":"강원도", "district":"금진 해수욕장" , "direction" : "90 270",  "webcam":[{"camUrl":"http://liveserver.iptime.org:82/hls/second.m3u8", "provider":"세컨라운지"},{"camUrl":"http://cctvlive.kr/wsb.htm?no=8", "provider":"알로하서프"}],  "weatherURL":"https://www.windfinder.com/forecast/gangneung","webcam2":"http://cctvlive.kr/wsb.htm?no=8", "camprovider2":"알로하서프", "matching":"60","location":"강릉시 옥계면", "shop":[{"name":"세컨라운지(2ndlounge)","phone":"010-4563-9584","homepage":"http://2ndlounge.co.kr/","address":""},{"name":"알로하서프(alohasurf)","phone":"010-4323-8009","homepage":"http://alohasurf.kr/","address":"347-40 Geumjin-ri, Okgye-myeon, Gangneung, Gangwon-do, South Korea"}]}
  ,{"index":"4", "province":"강원도", "district":"기사문 해수욕장", "direction" : "90 270",  "webcam":[{"camUrl":"http://cctvlive.kr/wsb.htm?no=4", "provider":"양양서프"}, {"camUrl":"http://liveserver.iptime.org:82/hls/goodsurf.m3u8", "provider":""}],  "shop":[{"name":"펀서프(Funsurf)","phone":"070-4151-8227","homepage":"http://funsurf.co.kr/","address":""},{"name":"양양서프&카페(yangyang surf&cafe)","phone":"033-672-0485","homepage":"http://yangyangsurf.co.kr/default/","address":""},{"name":"서퍼스(surfers)","phone":"070-4400-9995","homepage":"www.surfers.co.kr","address":""},{"name":"낭만비치(구surfx)","phone":"010-6770-9918","homepage":"http://surfingschool.co.kr/","address":""},{"name":"봉봉서프카페","phone":"010-7933-3330","homepage":"","address":"89-29 Gisamun-ri, Hyeonbuk-myeon, Yangyang, Gangwon-do, South Korea"},{"name":"서프앤쿡(surf&cook)","phone":"010-9775-3889","homepage":"","address":"41-1 Gisamun-gil, Hyeonbuk-myeon, Yangyang, Gangwon-do, South Korea"}], "weatherURL":"https://www.windfinder.com/forecast/gisamun_beach", "matching":"100", "location":"강원도 양양군 현북면"}
  ,{"index":"5", "province":"강원도", "district":"남애 해수욕장", "direction" : "90 270", "webcam":[{"camUrl":"http://liveserver.iptime.org:82/hls/namae.m3u8", "provider":"팔봉서프"}],"weatherURL":"https://www.windfinder.com/forecast/hyeonnam_myeon", "matching":"80", "location":"강원도 현남면","shop":[{"name":"팔봉서프(palbongsurf)","phone":"033-671-4888","homepage":"http://blog.naver.com/nagaja72/220045387253","address":"23 Annamae-gil, Hyeonnam-myeon, Yangyang, Gangwon-do, South Korea"},{"name":"서프오션스(palbongsurf)","phone":"010-9085-1061","homepage":"http://www.surfoceans.com/","address":"180-13 Namae-ri, Hyeonnam-myeon, Yangyang, Gangwon-do, South Korea"},{"name":"바루서프(barusurf)","phone":"070-4409-2289 ","homepage":"http://www.barusurfyy.com/","address":"260 Donghae-daero, Hyeonnam-myeon, Yangyang, Gangwon-do, South Korea"},{"name":"롱비치서프스쿨(longbeach surf school)","phone":"010-2331-7590","homepage":"http://cafe.naver.com/seasidevillagesurf","address":"581-27 Namae-ri, Hyeonnam-myeon, Yangyang, Gangwon-do, South Korea"},{"name":"남애서프클럽(namae surf club)","phone":"010-2559-3601","homepage":"http://nsc187.dothome.co.kr/","address":"6-3 Namae-ri, Hyeonnam-myeon, Yangyang, Gangwon-do, South Korea"}]}
  ,{"index":"6", "province":"강원도", "district":"남항진 해수욕장",  "direction" : "90 270", "weatherURL":"https://www.windfinder.com/forecast/gangneung","matching":"80","location":"강릉시 성덕동"}
  ,{"index":"7", "province":"강원도", "district":"대진 해수욕장",  "direction" : "90 270",  "weatherURL":"https://www.windfinder.com/forecast/yeongdeok","matching":"80","location":"영덕군 영해면", "shop":[{"name":"서프팩토리(sufrfactory)","phone":"010-3714-6794","homepage":"http://cafe.naver.com/surffactory","address":"47-1 Mukho-dong, Donghae-si, Gangwon-do, South Korea"},{"name":"동해서핑클럽 대진샵","phone":"010-3698-4272","homepage":"http://www.whatsurf.kr/","address":""}]}
  ,{"index":"8", "province":"강원도", "district":"동산 해수욕장",  "direction" : "90 270", "weatherURL":"https://www.windfinder.com/forecast/hyeonnam_myeon", "matching":"80", "location":"강원도 현남면","shop":[{"name":"블루코스트(bluecoast)","phone":"033-672-4499","homepage":"http://blog.naver.com/blcosurf","address":""},{"name":"서프스업(surf'sup)","phone":"033-671-0549","homepage":"","address":"210-18 Dongsan-ri, Hyeonnam-myeon, Yangyang, Gangwon-do, South Korea"},{"name":"힐비치(heal beach)","phone":"010-2629-3774","homepage":"http://playdazz.wix.com/healbeachsurf","address":"84-26 Dongsankeun-gil, Hyeonnam-myeon, Yangyang, Gangwon-do, South Korea"}]}
  ,{"index":"9", "province":"강원도", "district":"동호 해수욕장",  "direction" : "90 270","weatherURL":"https://www.windfinder.com/forecast/yangyang_virtual_buoy", "matching":"80","location":"양양군 손양면","shop":[{"name":"서프젯시티(surfjetcity)","phone":"070-4411-6789","homepage":"http://jetcity.co.kr/","address":""},{"name":"양양서핑스팟(surfspot)","phone":"010-2998-8124","homepage":"surfspot.co.kr","address":"19 Dongsankeun-gil, Hyeonnam-myeon, Yangyang, Gangwon-do, South Korea"}]}
  ,{"index":"10", "province":"강원도", "district":"망상 해수욕장",  "direction" : "90 270", "weatherURL":"https://www.windfinder.com/forecast/donghae", "matching":"80","location":"동해시 망상동"}
  ,{"index":"11", "province":"강원도", "district":"물치 해수욕장",  "direction" : "90 270", "weatherURL":"https://www.windfinder.com/forecast/sokcho","matching":"80","location":"양양군 강현면 물치리","shop":[{"name":"아이서프(isurf)","phone":"010-6334-7444","homepage":"www.isurf.kr/","address":"71-7 Jeonjin-ri, Ganghyeon-myeon, Yangyang, Gangwon-do, South Korea"}]}
  ,{"index":"12", "province":"강원도", "district":"봉수대 해수욕장",  "direction" : "90 270", "weatherURL":"https://www.windfinder.com/forecast/sokcho", "matching":"60", "location":"고성군 죽왕면"}
  ,{"index":"13", "province":"강원도", "district":"사천 해수욕장", "direction" : "90 270", "webcam":[{"camUrl":"http://cctvlive.kr/wsb.htm?no=11", "provider":"플라밍고서프"}], "weatherURL":"https://www.windfinder.com/forecast/bukgangneung","matching":"60","location":"강릉시 사천면"}
  ,{"index":"14", "province":"강원도", "district":"안목 해수욕장",   "direction" : "90 270", "weatherURL":"https://www.windfinder.com/forecast/gangneung","matching":"80", "location":"강릉시 견소동"}
  ,{"index":"15", "province":"강원도", "district":"옥계 해수욕장",  "direction" : "90 270",  "weatherURL":"https://www.windfinder.com/forecast/donghae", "matching":"80", "location":" 강릉시 옥계면"}
  ,{"index":"16", "province":"강원도", "district":"인구 해수욕장", "direction" : "90 270", "webcam":[{"camUrl":"http://cctvlive.kr/wsb.htm?no=7", "provider":""}], "weatherURL":"https://www.windfinder.com/forecast/hyeonnam_myeon", "matching":"80", "location":"강원도 현남면","shop":[{"name":"서파리(surfari)","phone":"010-9004-1455","homepage":"http://cafe.naver.com/surfarikorea","address":"641-1 Ingu-ri, Hyeonnam-myeon, Yangyang, Gangwon-do, South Korea"},{"name":"서프사이드(surfside)","phone":"010-4404-8422","homepage":"http://cafe.naver.com/surfside","address":"28-21 Ingu-gil, Hyeonnam-myeon, Yangyang, Gangwon-do, South Korea"},{"name":"타일러서프(tylersurf)","phone":"010-8921-8994","homepage":"http://tylersurf.cafe24.com/xe/","address":"16 Ingu-ri, Hyeonnam-myeon, Yangyang, Gangwon-do, South Korea"},{"name":"스톤피쉬(stonefish)","phone":"","homepage":"","address":""},{"name":"서프가든(surfgarden)","phone":"033-673-9733","homepage":"http://www.surfgarden.co.kr/","address":"Ingujungang-gil, Hyeonnam-myeon, Yangyang-gun, Gangwon-do, South Korea"}]}
  ,{"index":"17", "province":"강원도", "district":"자작도 해수욕장", "direction" : "90 270",  "webcam":[{"camUrl":"http://liveserver.iptime.org:82/hls/gogobeach.m3u8", "provider":"고고비치"}], "weatherURL":"https://www.windfinder.com/forecast/sokcho","matching":"60", "location":"강원 고성군 죽왕면 문암리","shop":[{"name":"고고비치(gogobeach)","phone":"070-7345-8088","homepage":"http://www.gogobeach.net/","address":"581-16 Munamjil-ri, Jugwang-myeon, Goseong-gun, Gangwon-do, South Korea"}]}
  ,{"index":"18", "province":"강원도", "district":"잔교 해수욕장",   "direction" : "90 270", "weatherURL":"https://www.windfinder.com/forecast/hyeonnam_myeon","matching":"80","location":"양양군 현북면","shop":[{"name":"서프스타서핑스쿨(surfstar)","phone":"070-4215-1375","homepage":"http://www.surfstarkorea.com/","address":"31-5 Jangyo-ri, Hyeonbuk-myeon, Yangyang, Gangwon-do, South Korea"}]}
  ,{"index":"19", "province":"강원도", "district":"죽도 해수욕장", "direction" : "90 270", "webcam":[{"camUrl":"http://495326730.icamv.com:1935/495326730/main/playlist.m3u8", "provider":"미노스서프"},{"camUrl":"http://cctvlive.kr/wsb.htm?no=2", "provider":"서프라이즈"}], "weatherURL":"https://www.windfinder.com/forecast/hyeonnam_myeon", "matching":"80", "location":"강원도 현남면","shop":[{"name":"서프가든(surfgarden)","phone":"033-673-9733","homepage":"http://www.surfgarden.co.kr/","address":"Ingujungang-gil, Hyeonnam-myeon, Yangyang-gun, Gangwon-do, South Korea"},{"name":"서프세븐리조트(surf7thresort)","phone":"033-671-2931","homepage":"http://surf7th.com/","address":"79 Ingujungang-gil, Hyeonnam-myeon, Yangyang, Gangwon-do, South Korea"},{"name":"씨맨스쿠버&서핑(seamansurfing)","phone":"010-2566-0506","homepage":"http://cafe.naver.com/seamandiveresort","address":"33-16 Sibyeon-ri, Hyeonnam-myeon, Yangyang, Gangwon-do, South Korea"},{"name":"서프라이즈(surfrise)","phone":"070-4154-8548","homepage":"http://surfrise.co.kr/","address":""},{"name":"서퍼911(surfer911)","phone":"033-6710-911","homepage":"http://aelsulin.wix.com/surfer","address":"27-5 Sibyeon-ri, Hyeonnam-myeon, Yangyang, Gangwon-do, South Korea"},{"name":"오닐서프(oneilsurf)","phone":"070-4250-3434","homepage":"http://www.oneillsurf.co.kr","address":"27-10 Sibyeon-ri, Hyeonnam-myeon, Yangyang, Gangwon-do, South Korea"}]}
  ,{"index":"20", "province":"강원도", "district":"천진 해수욕장",    "direction" : "90 270",  "weatherURL":"https://www.windfinder.com/forecast/geojin","matching":"80","location":"고성군 토성면", "shop":[{"name":"서핑스쿨렛미서프","phone":"010-4381-1811","homepage":"http://blog.naver.com/mti008","address":"43 Cheonjin-ri, Toseong-myeon, Goseong-gun, Gangwon-do, South Korea"}]}
  ,{"index":"21", "province":"강원도", "district":"추암 해수욕장",  "direction" : "90 270",  "weatherURL":"https://www.windfinder.com/forecast/donghae", "matching":"80","location":"동해시 북평동"}
  ,{"index":"22", "province":"강원도", "district":"하조대 해수욕장", "direction" : "90 270",  "weatherURL":"https://www.windfinder.com/forecast/hyeonnam_myeon","matching":"80","location":"양양군 현북면",  "shop":[{"name":"서피비치","phone":"033-672-0695","homepage":"http://surfyy.com/","address":"508 Junggwangjeong-ri, Hyeonbuk-myeon, Yangyang, Gangwon-do, South Korea"}]}
  ,{"index":"23", "province":"강원도", "district":"한섬 해수욕장",   "direction" : "90 270", "weatherURL":"https://www.windfinder.com/forecast/donghae","matching":"80", "location":"동해시 천곡동","shop":[{"name":"동해서핑클럽 한섬샵","phone":"010-3698-4272","homepage":"http://www.whatsurf.kr/","address":"948 Cheongok-dong, Donghae-si, Gangwon-do, South Korea"},{"name":"동해ARK42","phone":"033-535-0417","homepage":"http://club.cyworld.com/arkdh-surf42","address":"Cheongok-dong, Donghae-si, Gangwon-do, South Korea"}]}
  ,{"index":"24", "province":"강원도", "district":"화진포 해수욕장",   "direction" : "90 270",  "weatherURL":"https://www.windfinder.com/forecast/geojin","matching":"80", "location":"강원도 거진읍 화포리"}

  ,{"index":"25", "province":"충청남도", "district":"꽃지 해수욕장",  "direction" : "270 90",  "weatherURL":"https://www.windfinder.com/forecast/anmyeondo", "matching":"80","location":"태안군 안면읍"}
  ,{"index":"26", "province":"충청남도", "district":"만리포 해수욕장", "direction" : "270 90", "webcam":[{"camUrl":"http://cctvlive.kr/wsb.htm?no=5", "provider":"MLP서프"}], "shop":[{"name":"MLP서프","phone":"010-8948-9605","homepage":"http://blog.naver.com/lee0119628","address":""}], "weatherURL":"https://www.windfinder.com/forecast/mallipo", "location":"", "matching":"100"}

  ,{"index":"27", "province":"경상남도", "district":"광안리 해수욕장",  "direction" : "315 135",   "weatherURL":"https://www.windfinder.com/forecast/gwang_an_beach", "matching":"100","shop":[{"name":"광안리서핑학교(kaisurf)","phone":"010-8661-9437","homepage":"http://kaisurf.co.kr","address":"133 Gwanganhaebyeon-ro, Suyeong-gu, Busan, South Korea"}]}
  ,{"index":"28", "province":"경상남도", "district":"나사리 해수욕장",  "direction" : "315 135", "weatherURL":"https://www.windfinder.com/forecast/nasari", "matching":"100"}
  ,{"index":"29", "province":"경상남도", "district":"다대포 해수욕장", "direction" : "315 135",  "webcam":[{"camUrl":"http://liveserver.iptime.org:82/hls/healingsurf.m3u8", "provider":"힐링서프"}], "weatherURL":"https://www.windfinder.com/forecast/dadaepo_beach", "matching":"100","shop":[{"name":"웨이브시티(wavecity)","phone":"010-4132-2208","homepage":"www.wavecity.co.kr","address":"1548-33 Dadae 1(il)-dong, Saha-gu, Busan, South Korea"},{"name":"서프버디(surfbuddy)","phone":"010-9598-3366","homepage":"http://www.ddpsurfbuddy.com/","address":"1548-37 Dadae 1(il)-dong, Saha-gu, Busan, South Korea"}]}
  ,{"index":"30", "province":"경상남도", "district":"송정 해수욕장",  "direction" : "315 135",  "webcam":[{"camUrl":"http://cctvlive.kr/wsb.htm?no=1", "provider":"서프홀릭"}],  "weatherURL":"https://www.windfinder.com/forecast/songjung_beach", "matching":"100","shop":[{"name":"서프짐(surfgym)","phone":"051-701-6635","homepage":"http://www.surfgymkorea.com/#!blog/c1of0","address":""},{"name":"바루서프송정(barusurfsj)","phone":"070-4121-2222","homepage":"http://www.barusurfsj.com/","address":"437-10 Songjeong-dong, Haeundae, Busan, South Korea"},{"name":"몽키서프(monkeysurf)","phone":"051-938-8141","homepage":"http://monkeysurf.foredu.kr/","address":"58-1 Songjeonggwangeogol-ro, Haeundae, Busan, South Korea"},{"name":"베어브라더(bearbrother)","phone":"010-7557-8712","homepage":"http://www.bearbrothersurf.com/","address":"21 Songjeonggwangeogol-ro, Haeundae, Busan, South Korea"},{"name":"송정엉클서프(uncle surf)","phone":"051-701-2982","homepage":"http://cafe.daum.net/unclesurf","address":"711-13 Songjeong-dong, Haeundae, Busan, South Korea"},{"name":"송정서핑학교(songjung surf school)","phone":"051-704-0664","homepage":"","address":"http://www.surfschool.co.kr/"},{"name":"서프홀릭(surfholic)","phone":"","homepage":"http://surfholic.co.kr/","address":"711-5 Songjeong-dong, Haeundae, Busan, South Korea"},{"name":"데이서프(daysurf)","phone":"070-4126-0227","homepage":"http://daysurfshop.modoo.at/","address":"299-1 Songjeong-dong, Haeundae, Busan, South Korea"},{"name":"더서프(thesurf)","phone":"051-702-6621","homepage":"http://www.thesurf.co.kr/default/","address":"297-37 Songjeong-dong, Haeundae, Busan, South Korea"}]}
  ,{"index":"31", "province":"경상남도", "district":"임랑 해수욕장",  "direction" : "315 135",  "weatherURL":"https://www.windfinder.com/forecast/nasari", "matching":"80","location":"부산광역시 장안읍"}
  ,{"index":"32", "province":"경상남도", "district":"진하 해수욕장",  "direction" : "315 135",  "weatherURL":"https://www.windfinder.com/forecast/jinha_beach_ulsan", "matching":"100","shop":[{"name":"서핑헤븐(surfingheaven)","phone":"010-8826-8950","homepage":"http://surfingheaven.modoo.at/","address":"416-1 Jinha-ri, Seosaeng-myeon, Ulju-gun, Ulsan, South Korea"}]}
  ,{"index":"33", "province":"경상남도", "district":"해운대 해수욕장",   "direction" : "315 135",  "weatherURL":"https://www.windfinder.com/forecast/haeundae_beach", "matching":"100","shop":[{"name":"미노스서프(minossurf)","phone":"051-731-5186","homepage":"www.minossurf.com","address":"1124-2 Jung-dong, Haeundae, Busan, South Korea"}]}
  ,{"index":"34", "province":"경상남도", "district":"흥남 해수욕장", "direction" : "315 135",  "weatherURL":"https://www.windfinder.com/forecast/heung_hwan_beach", "matching":"100"}

  ,{"index":"35", "province":"전라남도", "district":"금일해당화 해수욕장",  "direction" : "0 180",  "weatherURL":"https://www.windfinder.com/forecast/wan-do", "matching":"80"}
  ,{"index":"36", "province":"전라남도", "district":"남열해돋이 해수욕장",   "direction" : "0 180",   "weatherURL":"https://www.windfinder.com/forecast/YEOSU" ,    "matching":"40" ,"location":"고흥군 영남면"}
  ,{"index":"37", "province":"전라남도", "district":"송정솔바람 해수욕장",   "direction" : "0 180", "weatherURL":"https://www.windfinder.com/forecast/YEOSU" ,    "matching":"40"    ,"location":"남해군 미조면"}
  ,{"index":"38", "province":"전라남도", "district":"신덕 해수욕장",    "direction" : "0 180",   "weatherURL":"https://www.windfinder.com/forecast/YEOSU","matching":"80","location":"여수시 삼일동"}

  ,{"index":"39", "province":"경상북도", "district":"망양정 해수욕장",  "direction" : "315 135",    "weatherURL":"https://www.windfinder.com/forecast/uljin", "matching":"80", "location":"경상북도 울진군 근남면"}
  ,{"index":"40", "province":"경상북도", "district":"신항만 해수욕장",  "direction" : "315 135", "webcam":[{"camUrl":"http://cctvlive.kr/wsb.htm?no=3", "provider":"포항서핑아카데미"}],  "weatherURL":"https://www.windfinder.com/forecast/dadaepo_beach","matching":"60","location":"포항시 용안리","shop":[{"name":"서프포인트(surfpoint)","phone":"010-3808-1233","homepage":"www.surfpoint.co.kr","address":"124 Yeongilmanhang-ro, Heunghae-eup, Buk-gu, Pohang, Gyeongsangbuk-do, South Korea"},{"name":"서퍼시티(surfercity)","phone":" 010-62868-4243","homepage":"http://cafe.naver.com/pohangsurfercity","address":"Heunghae-eup, Pohang-si, South Korea"}]}
  ,{"index":"41", "province":"경상북도", "district":"월포 해수욕장",   "direction" : "315 135",   "weatherURL":"https://www.windfinder.com/forecast/yeongdeok", "matching":"80","location":"포항시 청하면"}
  ,{"index":"42", "province":"경상북도", "district":"칠포 해수욕장",   "direction" : "315 135", "weatherURL":"https://www.windfinder.com/forecast/yonghan", "matching":"80", "location":" 경상북도 포항시 북구 흥해읍 칠포리"}
  ,{"index":"43", "province":"경상북도", "district":"화진 해수욕장",   "direction" : "315 135",   "weatherURL":"https://www.windfinder.com/forecast/yonghan", "matching":"80", "location":" 경상북도 포항시 북구 송라면 화진리"}

  ,{"index":"44", "province":"제주도", "district":"곽지 해수욕장",   "direction" : "135 315", "weatherURL":"https://www.windfinder.com/forecast/mosulpo_jeju_do"     ,"matching":"60" ,"location":"서귀포시 안덕면 사계리 131-8"}
  ,{"index":"45", "province":"제주도", "district":"쇠소깍 해수욕장",  "direction" : "180 0",   "weatherURL":"https://www.windfinder.com/forecast/SEOGWIPO"  ,      "matching":"80","location":"서귀포시 하효동 쇠소깍로","shop":[{"name":"AKIA서프","phone":"010-5213-1869","homepage":"http://www.jejusurfing.com/","address":"2323-2 Topyeong-dong, Seogwipo, Jeju-do, South Korea"}]}
  ,{"index":"46", "province":"제주도", "district":"월정리 해수욕장",   "direction" : "225 90",   "weatherURL":"https://www.windfinder.com/forecast/hamdok_ri_beach","matching":"60", "location":"제주시 구좌읍"}
  ,{"index":"47", "province":"제주도", "district":"이호테우 해수욕장",  "direction" : "180 0", "webcam":[{"camUrl":"http://cctvlive.kr/wsb.htm?no=9", "provider":"J*AVALON"}], "weatherURL":"https://www.windfinder.com/forecast/jeju-do" ,"matching":"80","location":"제주시 이호일동","shop":[{"name":"노리터서프스쿨(noritersurfschool)","phone":"010-3696-6974","homepage":"http://cafe.naver.com/noritersurfschool","address":""}]}
  ,{"index":"48", "province":"제주도", "district":"중문 해수욕장",  "direction" : "0 180", "webcam":[{"camUrl":"http://cctvlive.kr/wsb.htm?no=6", "provider":"J*AVALON"}], "weatherURL":"https://www.windfinder.com/forecast/jungmun", "matching":"100","shop":[{"name":"JJ서프스쿨(JJ surf school)","phone":"010-6838-3354","homepage":"http://www.jjsurfing.com/","address":""},{"name":"제주서핑스쿨(Jeju surfing school)","phone":"010-5892-4242","homepage":"http://jejusurf.com/","address":"Jungmun-dong, Seogwipo-si, Jeju-do, South Korea"}]}
  ,{"index":"49", "province":"제주도", "district":"표선해비치 해수욕장",    "direction" : "315 135", "weatherURL":"https://www.windfinder.com/forecast/seongsan_jeju-do","matching":"60","location":"서귀포시 표선면"}
  ,{"index":"50", "province":"제주도", "district":"함덕서우봉 해수욕장",  "direction" : "225 45",   "weatherURL":"https://www.windfinder.com/forecast/hamdok_ri_beach", "matching":"100", "location":"제주시 조천읍"}
  ,{"index":"51", "province":"제주도", "district":"사계 해수욕장",   "direction" : "45 225",  "weatherURL":"https://www.windfinder.com/forecast/jungmun", "matching":"80", "location":"제주시 서귀포읍","shop":[{"name":"더블루웨이브","phone":"010-9323-4060","homepage":"http://cafe.naver.com/bluewavescuba","address":"95 Sagyebung-ro, Andeok-myeon, Seogwipo, Jeju-do, South Korea"},{"name":"비고르서프(VIGOR)","phone":"010-6667-4800","homepage":"http://vigorsurf.com","address":"2545-3 Sage-ri, Andeok-myeon, Seogwipo, Jeju-do, South Korea"},{"name":"바구스서프(bagussurf)","phone":"010-8661-9437","homepage":"www.jejubagus.com","address":"63 Hwasunseoseo-ro, Andeok-myeon, Seogwipo, Jeju-do, South Korea"}]}
  ]}
